%time,field.header.seq,field.header.stamp,field.header.frame_id,field.orientation.x,field.orientation.y,field.orientation.z,field.orientation.w,field.angular_velocity.x,field.angular_velocity.y,field.angular_velocity.z,field.linear_acceleration.x,field.linear_acceleration.y,field.linear_acceleration.z,field.magnetometer.x,field.magnetometer.y,field.magnetometer.z,field.pressure,field.temperature
1506925604630086660,34739,1506925604573364000,imu0,0.0,0.0,0.0,0.0,0.00279252680319,0.00209439510239,0.00628318530718,0.2941995,-9.62686141667,-0.228821833333,-0.613857142857,0.185,0.0392857142857,1006.3,0.0
1506925604630108561,34740,1506925604578364000,imu0,0.0,0.0,0.0,0.0,0.00558505360638,-0.0013962634016,0.00558505360638,0.269682875,-9.69223908333,-0.261510666667,-0.623857142857,0.187,0.037,1006.3,0.0
1506925604630114215,34741,1506925604583364000,imu0,0.0,0.0,0.0,0.0,0.00558505360638,-0.00349065850399,0.00279252680319,0.286027291667,-9.59417258333,-0.261510666667,-0.623857142857,0.187,0.037,1006.3,0.0
1506925604630117297,34742,1506925604588364000,imu0,0.0,0.0,0.0,0.0,0.00907571211037,-0.000698131700798,0.00767944870878,0.277855083333,-9.59417258333,-0.269682875,-0.623857142857,0.187,0.037,1006.3,0.0
1506925604630121190,34743,1506925604593364000,imu0,0.0,0.0,0.0,0.0,0.00767944870878,0.00209439510239,0.0111701072128,0.261510666667,-9.59417258333,-0.286027291667,-0.623857142857,0.187,0.037,1006.3,0.0
1506925604630135273,34744,1506925604598364000,imu0,0.0,0.0,0.0,0.0,0.00209439510239,-0.00418879020479,0.00767944870878,0.187960791667,-9.60234479167,-0.302371708333,-0.617857142857,0.185,0.0392857142857,1006.3,0.0
1506925604630157460,34745,1506925604603364000,imu0,0.0,0.0,0.0,0.0,0.000698131700798,-0.00418879020479,0.00767944870878,0.204305208333,-9.59417258333,-0.310543916667,-0.617857142857,0.185,0.0392857142857,1006.3,0.0
1506925604630162786,34746,1506925604608364000,imu0,0.0,0.0,0.0,0.0,0.0013962634016,0.0013962634016,0.00837758040957,0.228821833333,-9.59417258333,-0.310543916667,-0.617857142857,0.185,0.0392857142857,1006.3,0.0
1506925604630208479,34747,1506925604613364000,imu0,0.0,0.0,0.0,0.0,0.00349065850399,0.0,0.00279252680319,0.253338458333,-9.65955025,-0.302371708333,-0.617857142857,0.185,0.0392857142857,1006.3,0.0
1506925604630214722,34748,1506925604618364000,imu0,0.0,0.0,0.0,0.0,0.00837758040957,0.00279252680319,0.00349065850399,0.318716125,-9.65955025,-0.24516625,-0.624142857143,0.187,0.037,1006.34,0.0
1506925604687425290,34749,1506925604623364000,imu0,0.0,0.0,0.0,0.0,0.00767944870878,-0.00279252680319,0.00837758040957,0.34323275,-9.59417258333,-0.204305208333,-0.624142857143,0.187,0.037,1006.34,0.0
1506925604687446534,34750,1506925604628364000,imu0,0.0,0.0,0.0,0.0,0.00488692190558,-0.0013962634016,0.0111701072128,0.302371708333,-9.64320583333,-0.220649625,-0.624142857143,0.187,0.037,1006.34,0.0
1506925604687452722,34751,1506925604633364000,imu0,0.0,0.0,0.0,0.0,-0.000698131700798,0.00279252680319,0.00837758040957,0.277855083333,-9.610517,-0.24516625,-0.624142857143,0.187,0.037,1006.34,0.0
1506925604687460320,34752,1506925604638364000,imu0,0.0,0.0,0.0,0.0,-0.00279252680319,0.0,0.00977384381117,0.204305208333,-9.610517,-0.2941995,-0.628,0.189,0.0347142857143,1006.28,0.0
1506925604687467062,34753,1506925604643364000,imu0,0.0,0.0,0.0,0.0,0.000698131700798,-0.00279252680319,0.00907571211037,0.179788583333,-9.65955025,-0.326888333333,-0.628,0.189,0.0347142857143,1006.28,0.0
1506925604687479715,34754,1506925604648364000,imu0,0.0,0.0,0.0,0.0,0.00558505360638,0.000698131700798,0.00837758040957,0.171616375,-9.67589466667,-0.351404958333,-0.628,0.189,0.0347142857143,1006.28,0.0
1506925604687488878,34755,1506925604653364000,imu0,0.0,0.0,0.0,0.0,0.00837758040957,0.00349065850399,0.00279252680319,0.171616375,-9.66772245833,-0.302371708333,-0.628,0.189,0.0347142857143,1006.28,0.0
1506925604687494159,34756,1506925604658364000,imu0,0.0,0.0,0.0,0.0,0.00418879020479,0.00488692190558,0.0,0.277855083333,-9.635033625,-0.253338458333,-0.618,0.183,0.0342857142857,1006.22,0.0
1506925604687501444,34757,1506925604663364000,imu0,0.0,0.0,0.0,0.0,0.00418879020479,0.000698131700798,0.00349065850399,0.34323275,-9.610517,-0.261510666667,-0.618,0.183,0.0342857142857,1006.22,0.0
1506925604687527205,34758,1506925604668364000,imu0,0.0,0.0,0.0,0.0,0.00488692190558,-0.0013962634016,0.00628318530718,0.375921583333,-9.65137804167,-0.269682875,-0.618,0.183,0.0342857142857,1006.22,0.0
1506925604737323903,34759,1506925604673364000,imu0,0.0,0.0,0.0,0.0,0.00488692190558,0.000698131700798,0.00837758040957,0.359577166667,-9.67589466667,-0.236994041667,-0.618,0.183,0.0342857142857,1006.22,0.0
1506925604737332102,34760,1506925604678364000,imu0,0.0,0.0,0.0,0.0,0.00698131700798,0.000698131700798,0.00837758040957,0.2941995,-9.65137804167,-0.236994041667,-0.621714285714,0.185,0.037,1006.22,0.0
1506925604737351915,34761,1506925604683364000,imu0,0.0,0.0,0.0,0.0,0.0,0.00558505360638,0.00907571211037,0.220649625,-9.65955025,-0.253338458333,-0.621714285714,0.185,0.037,1006.22,0.0
1506925604737355679,34762,1506925604688364000,imu0,0.0,0.0,0.0,0.0,0.0,-0.0013962634016,0.00977384381117,0.179788583333,-9.65955025,-0.302371708333,-0.621714285714,0.185,0.037,1006.22,0.0
1506925604737365615,34763,1506925604693364000,imu0,0.0,0.0,0.0,0.0,0.0,0.0013962634016,0.00977384381117,0.179788583333,-9.65955025,-0.286027291667,-0.621714285714,0.185,0.037,1006.22,0.0
1506925604737370041,34764,1506925604698364000,imu0,0.0,0.0,0.0,0.0,0.00349065850399,0.00418879020479,0.00698131700798,0.204305208333,-9.61868920833,-0.24516625,-0.628,0.189,0.0371428571429,1006.28,0.0
1506925604737392809,34765,1506925604703364000,imu0,0.0,0.0,0.0,0.0,0.00418879020479,0.0013962634016,0.00418879020479,0.24516625,-9.61868920833,-0.269682875,-0.628,0.189,0.0371428571429,1006.28,0.0
1506925604737399293,34766,1506925604708364000,imu0,0.0,0.0,0.0,0.0,0.00977384381117,-0.00209439510239,0.00698131700798,0.261510666667,-9.65137804167,-0.2941995,-0.628,0.189,0.0371428571429,1006.28,0.0
1506925604737403560,34767,1506925604713364000,imu0,0.0,0.0,0.0,0.0,0.00837758040957,0.00349065850399,0.00698131700798,0.236994041667,-9.60234479167,-0.269682875,-0.628,0.189,0.0371428571429,1006.28,0.0
1506925604737446722,34768,1506925604718364000,imu0,0.0,0.0,0.0,0.0,0.00418879020479,0.000698131700798,0.00418879020479,0.302371708333,-9.586000375,-0.24516625,-0.618,0.185,0.0392857142857,1006.18,0.0
1506925604787090543,34769,1506925604723364000,imu0,0.0,0.0,0.0,0.0,0.00349065850399,-0.00488692190558,0.00418879020479,0.277855083333,-9.610517,-0.253338458333,-0.618,0.185,0.0392857142857,1006.18,0.0
1506925604787103453,34770,1506925604728364000,imu0,0.0,0.0,0.0,0.0,0.00279252680319,0.00279252680319,0.00907571211037,0.277855083333,-9.59417258333,-0.228821833333,-0.618,0.185,0.0392857142857,1006.18,0.0
1506925604787112469,34771,1506925604733364000,imu0,0.0,0.0,0.0,0.0,0.00209439510239,0.00349065850399,0.00977384381117,0.253338458333,-9.67589466667,-0.269682875,-0.618,0.185,0.0392857142857,1006.18,0.0
1506925604787117605,34772,1506925604738364000,imu0,0.0,0.0,0.0,0.0,0.00628318530718,0.0,0.00628318530718,0.204305208333,-9.59417258333,-0.302371708333,-0.626,0.185,0.037,1006.24,0.0
1506925604787121370,34773,1506925604743364000,imu0,0.0,0.0,0.0,0.0,0.00418879020479,0.000698131700798,0.00698131700798,0.204305208333,-9.57782816667,-0.2941995,-0.626,0.185,0.037,1006.24,0.0
1506925604787137141,34774,1506925604748364000,imu0,0.0,0.0,0.0,0.0,0.00349065850399,0.00279252680319,0.00907571211037,0.204305208333,-9.586000375,-0.286027291667,-0.626,0.185,0.037,1006.24,0.0
1506925604787143701,34775,1506925604753364000,imu0,0.0,0.0,0.0,0.0,-0.000698131700798,0.00209439510239,0.00837758040957,0.220649625,-9.610517,-0.318716125,-0.626,0.185,0.037,1006.24,0.0
1506925604787161695,34776,1506925604758364000,imu0,0.0,0.0,0.0,0.0,-0.000698131700798,0.00349065850399,0.00279252680319,0.212477416667,-9.65955025,-0.277855083333,-0.613857142857,0.181,0.0391428571429,1006.42,0.0
1506925604787168364,34777,1506925604763364000,imu0,0.0,0.0,0.0,0.0,0.00418879020479,-0.00349065850399,0.0013962634016,0.2941995,-9.62686141667,-0.302371708333,-0.613857142857,0.181,0.0391428571429,1006.42,0.0
1506925604787191694,34778,1506925604768364000,imu0,0.0,0.0,0.0,0.0,0.00488692190558,0.000698131700798,0.00349065850399,0.2941995,-9.64320583333,-0.261510666667,-0.613857142857,0.181,0.0391428571429,1006.42,0.0
1506925604837688802,34779,1506925604773364000,imu0,0.0,0.0,0.0,0.0,0.00977384381117,0.000698131700798,0.00488692190558,0.286027291667,-9.610517,-0.24516625,-0.623714285714,0.187,0.037,1006.32,0.0
1506925604837766463,34780,1506925604778364000,imu0,0.0,0.0,0.0,0.0,0.00698131700798,0.00488692190558,0.00488692190558,0.269682875,-9.586000375,-0.277855083333,-0.623714285714,0.187,0.037,1006.32,0.0
1506925604837775769,34781,1506925604783364000,imu0,0.0,0.0,0.0,0.0,0.00418879020479,0.0,0.00907571211037,0.310543916667,-9.610517,-0.2941995,-0.623714285714,0.187,0.037,1006.32,0.0
1506925604837784345,34782,1506925604788364000,imu0,0.0,0.0,0.0,0.0,0.00349065850399,0.0013962634016,0.00837758040957,0.261510666667,-9.635033625,-0.286027291667,-0.623714285714,0.187,0.037,1006.32,0.0
1506925604837789649,34783,1506925604793364000,imu0,0.0,0.0,0.0,0.0,0.00488692190558,0.000698131700798,0.00837758040957,0.220649625,-9.610517,-0.253338458333,-0.626,0.187,0.0394285714286,1006.18,0.0
1506925604837793519,34784,1506925604798364000,imu0,0.0,0.0,0.0,0.0,0.00558505360638,0.0013962634016,0.00628318530718,0.204305208333,-9.60234479167,-0.286027291667,-0.626,0.187,0.0394285714286,1006.18,0.0
1506925604837829105,34785,1506925604803364000,imu0,0.0,0.0,0.0,0.0,0.00907571211037,0.00209439510239,0.00698131700798,0.179788583333,-9.61868920833,-0.261510666667,-0.626,0.187,0.0394285714286,1006.18,0.0
1506925604837838406,34786,1506925604808364000,imu0,0.0,0.0,0.0,0.0,0.00488692190558,-0.000698131700798,0.00628318530718,0.228821833333,-9.61868920833,-0.269682875,-0.626,0.187,0.0394285714286,1006.18,0.0
1506925604837843722,34787,1506925604813364000,imu0,0.0,0.0,0.0,0.0,0.00418879020479,0.00279252680319,0.00558505360638,0.228821833333,-9.610517,-0.326888333333,-0.615857142857,0.183,0.0391428571429,1006.22,0.0
1506925604837849422,34788,1506925604818364000,imu0,0.0,0.0,0.0,0.0,0.00279252680319,0.00418879020479,0.00418879020479,0.261510666667,-9.71675570833,-0.302371708333,-0.615857142857,0.183,0.0391428571429,1006.22,0.0
1506925604887695296,34789,1506925604823364000,imu0,0.0,0.0,0.0,0.0,0.00349065850399,-0.0013962634016,0.00628318530718,0.253338458333,-9.66772245833,-0.236994041667,-0.615857142857,0.183,0.0391428571429,1006.22,0.0
1506925604887712471,34790,1506925604828364000,imu0,0.0,0.0,0.0,0.0,0.00279252680319,0.00209439510239,0.00767944870878,0.261510666667,-9.69223908333,-0.253338458333,-0.615857142857,0.183,0.0391428571429,1006.22,0.0
1506925604887720017,34791,1506925604833364000,imu0,0.0,0.0,0.0,0.0,0.00558505360638,0.00279252680319,0.00698131700798,0.277855083333,-9.69223908333,-0.269682875,-0.625857142857,0.187,0.0394285714286,1006.24,0.0
1506925604887724324,34792,1506925604838364000,imu0,0.0,0.0,0.0,0.0,0.00488692190558,-0.00209439510239,0.00767944870878,0.269682875,-9.65137804167,-0.261510666667,-0.625857142857,0.187,0.0394285714286,1006.24,0.0
1506925604887728024,34793,1506925604843364000,imu0,0.0,0.0,0.0,0.0,0.00279252680319,0.0013962634016,0.00767944870878,0.318716125,-9.65955025,-0.269682875,-0.625857142857,0.187,0.0394285714286,1006.24,0.0
1506925604887733105,34794,1506925604848364000,imu0,0.0,0.0,0.0,0.0,-0.0013962634016,-0.000698131700798,0.00279252680319,0.277855083333,-9.64320583333,-0.269682875,-0.625857142857,0.187,0.0394285714286,1006.24,0.0
1506925604887740612,34795,1506925604853364000,imu0,0.0,0.0,0.0,0.0,0.00209439510239,0.0,0.00907571211037,0.261510666667,-9.610517,-0.2941995,-0.617857142857,0.183,0.0367142857143,1006.3,0.0
1506925604887744152,34796,1506925604858364000,imu0,0.0,0.0,0.0,0.0,0.00628318530718,-0.00209439510239,0.00767944870878,0.286027291667,-9.65955025,-0.269682875,-0.617857142857,0.183,0.0367142857143,1006.3,0.0
1506925604887841482,34797,1506925604863364000,imu0,0.0,0.0,0.0,0.0,0.00558505360638,-0.00349065850399,0.00628318530718,0.220649625,-9.635033625,-0.286027291667,-0.617857142857,0.183,0.0367142857143,1006.3,0.0
1506925604887850766,34798,1506925604868364000,imu0,0.0,0.0,0.0,0.0,0.00418879020479,-0.00209439510239,0.00837758040957,0.228821833333,-9.60234479167,-0.310543916667,-0.617857142857,0.183,0.0367142857143,1006.3,0.0
1506925604937800904,34799,1506925604873364000,imu0,0.0,0.0,0.0,0.0,0.00418879020479,-0.0013962634016,0.00698131700798,0.212477416667,-9.62686141667,-0.326888333333,-0.621857142857,0.185,0.037,1006.28,0.0
1506925604937814280,34800,1506925604878364000,imu0,0.0,0.0,0.0,0.0,0.000698131700798,0.00488692190558,0.00767944870878,0.236994041667,-9.65137804167,-0.277855083333,-0.621857142857,0.185,0.037,1006.28,0.0
1506925604937820574,34801,1506925604883364000,imu0,0.0,0.0,0.0,0.0,0.000698131700798,0.00349065850399,0.00698131700798,0.253338458333,-9.65137804167,-0.261510666667,-0.621857142857,0.185,0.037,1006.28,0.0
1506925604937842487,34802,1506925604888364000,imu0,0.0,0.0,0.0,0.0,0.000698131700798,0.00279252680319,0.010471975512,0.286027291667,-9.62686141667,-0.277855083333,-0.621857142857,0.185,0.037,1006.28,0.0
1506925604937846540,34803,1506925604893364000,imu0,0.0,0.0,0.0,0.0,0.00279252680319,-0.00279252680319,0.00698131700798,0.261510666667,-9.61868920833,-0.269682875,-0.626,0.187,0.0394285714286,1006.3,0.0
1506925604937858353,34804,1506925604898364000,imu0,0.0,0.0,0.0,0.0,0.0013962634016,0.00279252680319,0.00698131700798,0.261510666667,-9.62686141667,-0.261510666667,-0.626,0.187,0.0394285714286,1006.3,0.0
1506925604937861648,34805,1506925604903364000,imu0,0.0,0.0,0.0,0.0,0.0013962634016,0.0013962634016,0.00698131700798,0.236994041667,-9.586000375,-0.228821833333,-0.626,0.187,0.0394285714286,1006.3,0.0
1506925604937868879,34806,1506925604908364000,imu0,0.0,0.0,0.0,0.0,0.00349065850399,-0.00209439510239,0.00558505360638,0.220649625,-9.610517,-0.318716125,-0.626,0.187,0.0394285714286,1006.3,0.0
1506925604937873346,34807,1506925604913364000,imu0,0.0,0.0,0.0,0.0,0.00488692190558,-0.000698131700798,0.00488692190558,0.228821833333,-9.610517,-0.277855083333,-0.618,0.183142857143,0.0391428571429,1006.24,0.0
1506925604937895666,34808,1506925604918364000,imu0,0.0,0.0,0.0,0.0,0.00349065850399,-0.0013962634016,0.00628318530718,0.228821833333,-9.60234479167,-0.286027291667,-0.618,0.183142857143,0.0391428571429,1006.24,0.0
1506925604979892503,34809,1506925604923364000,imu0,0.0,0.0,0.0,0.0,0.00558505360638,0.00209439510239,0.00628318530718,0.228821833333,-9.67589466667,-0.269682875,-0.618,0.183142857143,0.0391428571429,1006.24,0.0
1506925604979900410,34810,1506925604928364000,imu0,0.0,0.0,0.0,0.0,0.00488692190558,0.000698131700798,0.00837758040957,0.302371708333,-9.635033625,-0.261510666667,-0.618,0.183142857143,0.0391428571429,1006.24,0.0
1506925604979908258,34811,1506925604933364000,imu0,0.0,0.0,0.0,0.0,0.00418879020479,0.0,0.00628318530718,0.318716125,-9.59417258333,-0.310543916667,-0.621857142857,0.187,0.037,1006.32,0.0
1506925604979912432,34812,1506925604938364000,imu0,0.0,0.0,0.0,0.0,0.0013962634016,-0.000698131700798,0.00279252680319,0.310543916667,-9.61868920833,-0.2941995,-0.621857142857,0.187,0.037,1006.32,0.0
1506925604979923398,34813,1506925604943364000,imu0,0.0,0.0,0.0,0.0,-0.000698131700798,0.00279252680319,0.00558505360638,0.310543916667,-9.66772245833,-0.24516625,-0.621857142857,0.187,0.037,1006.32,0.0
1506925604979926393,34814,1506925604948364000,imu0,0.0,0.0,0.0,0.0,0.00279252680319,-0.000698131700798,0.0111701072128,0.24516625,-9.66772245833,-0.24516625,-0.621857142857,0.187,0.037,1006.32,0.0
1506925604979932311,34815,1506925604953364000,imu0,0.0,0.0,0.0,0.0,0.00558505360638,-0.000698131700798,0.00977384381117,0.236994041667,-9.65137804167,-0.2941995,-0.619857142857,0.181,0.0367142857143,1006.26,0.0
1506925604979943402,34816,1506925604958364000,imu0,0.0,0.0,0.0,0.0,0.00558505360638,0.00279252680319,0.00558505360638,0.236994041667,-9.61868920833,-0.318716125,-0.619857142857,0.181,0.0367142857143,1006.26,0.0
1506925604979945753,34817,1506925604963364000,imu0,0.0,0.0,0.0,0.0,0.00209439510239,0.0013962634016,0.00837758040957,0.261510666667,-9.62686141667,-0.2941995,-0.619857142857,0.181,0.0367142857143,1006.26,0.0
1506925604979955129,34818,1506925604968364000,imu0,0.0,0.0,0.0,0.0,0.00558505360638,0.0,0.00837758040957,0.24516625,-9.61868920833,-0.261510666667,-0.619857142857,0.181,0.0367142857143,1006.26,0.0
1506925605037748866,34819,1506925604973364000,imu0,0.0,0.0,0.0,0.0,0.00558505360638,0.00349065850399,0.00488692190558,0.220649625,-9.59417258333,-0.261510666667,-0.624,0.187,0.0394285714286,1006.24,0.0
1506925605037826901,34820,1506925604978364000,imu0,0.0,0.0,0.0,0.0,0.000698131700798,0.00418879020479,0.00418879020479,0.261510666667,-9.64320583333,-0.24516625,-0.624,0.187,0.0394285714286,1006.24,0.0
1506925605037840931,34821,1506925604983364000,imu0,0.0,0.0,0.0,0.0,0.00209439510239,0.00209439510239,0.00628318530718,0.286027291667,-9.61868920833,-0.261510666667,-0.624,0.187,0.0394285714286,1006.24,0.0
1506925605037849099,34822,1506925604988364000,imu0,0.0,0.0,0.0,0.0,0.00488692190558,-0.0013962634016,0.00767944870878,0.236994041667,-9.60234479167,-0.277855083333,-0.624,0.187,0.0394285714286,1006.24,0.0
1506925605037854635,34823,1506925604993364000,imu0,0.0,0.0,0.0,0.0,0.00488692190558,-0.0013962634016,0.00977384381117,0.2941995,-9.586000375,-0.302371708333,-0.626,0.187,0.0394285714286,1006.24,0.0
1506925605037860298,34824,1506925604998364000,imu0,0.0,0.0,0.0,0.0,0.00628318530718,0.00418879020479,0.00698131700798,0.2941995,-9.635033625,-0.302371708333,-0.626,0.187,0.0394285714286,1006.24,0.0
1506925605037864817,34825,1506925605003364000,imu0,0.0,0.0,0.0,0.0,0.00279252680319,0.00488692190558,0.00698131700798,0.24516625,-9.61868920833,-0.24516625,-0.626,0.187,0.0394285714286,1006.24,0.0
1506925605037872856,34826,1506925605008364000,imu0,0.0,0.0,0.0,0.0,-0.0013962634016,-0.0013962634016,0.00837758040957,0.261510666667,-9.66772245833,-0.261510666667,-0.615857142857,0.183,0.0391428571429,1006.38,0.0
1506925605037899889,34827,1506925605013364000,imu0,0.0,0.0,0.0,0.0,0.00418879020479,-0.000698131700798,0.00628318530718,0.261510666667,-9.65137804167,-0.286027291667,-0.615857142857,0.183,0.0391428571429,1006.38,0.0
1506925605037915187,34828,1506925605018364000,imu0,0.0,0.0,0.0,0.0,0.00837758040957,0.00349065850399,0.00907571211037,0.277855083333,-9.65137804167,-0.261510666667,-0.615857142857,0.183,0.0391428571429,1006.38,0.0
1506925605087812383,34829,1506925605023364000,imu0,0.0,0.0,0.0,0.0,0.00558505360638,-0.00418879020479,0.00907571211037,0.286027291667,-9.635033625,-0.269682875,-0.615857142857,0.183,0.0391428571429,1006.38,0.0
1506925605087830498,34830,1506925605028364000,imu0,0.0,0.0,0.0,0.0,0.000698131700798,-0.0013962634016,0.010471975512,0.277855083333,-9.59417258333,-0.236994041667,-0.621857142857,0.185,0.037,1006.2,0.0
1506925605087854694,34831,1506925605033364000,imu0,0.0,0.0,0.0,0.0,0.00349065850399,-0.000698131700798,0.0118682389136,0.269682875,-9.59417258333,-0.277855083333,-0.621857142857,0.185,0.037,1006.2,0.0
1506925605087860538,34832,1506925605038364000,imu0,0.0,0.0,0.0,0.0,0.000698131700798,0.0,0.00907571211037,0.220649625,-9.55331154167,-0.286027291667,-0.621857142857,0.185,0.037,1006.2,0.0
1506925605087868550,34833,1506925605043364000,imu0,0.0,0.0,0.0,0.0,0.000698131700798,-0.0013962634016,0.00977384381117,0.212477416667,-9.65137804167,-0.286027291667,-0.621857142857,0.185,0.037,1006.2,0.0
1506925605087877162,34834,1506925605048364000,imu0,0.0,0.0,0.0,0.0,0.00209439510239,-0.000698131700798,0.00907571211037,0.228821833333,-9.66772245833,-0.310543916667,-0.623857142857,0.187,0.0345714285714,1006.2,0.0
1506925605087884446,34835,1506925605053364000,imu0,0.0,0.0,0.0,0.0,0.00558505360638,-0.0013962634016,0.00628318530718,0.236994041667,-9.69223908333,-0.277855083333,-0.623857142857,0.187,0.0345714285714,1006.2,0.0
1506925605087889449,34836,1506925605058364000,imu0,0.0,0.0,0.0,0.0,0.00837758040957,0.00349065850399,0.00558505360638,0.24516625,-9.56965595833,-0.269682875,-0.623857142857,0.187,0.0345714285714,1006.2,0.0
1506925605087893998,34837,1506925605063364000,imu0,0.0,0.0,0.0,0.0,0.00628318530718,0.00209439510239,0.00349065850399,0.277855083333,-9.60234479167,-0.228821833333,-0.623857142857,0.187,0.0345714285714,1006.2,0.0
1506925605087941477,34838,1506925605068364000,imu0,0.0,0.0,0.0,0.0,-0.0013962634016,-0.00209439510239,0.00558505360638,0.286027291667,-9.610517,-0.310543916667,-0.623857142857,0.185,0.037,1006.1,0.0
1506925605137638020,34839,1506925605073364000,imu0,0.0,0.0,0.0,0.0,0.00279252680319,-0.00209439510239,0.00767944870878,0.286027291667,-9.586000375,-0.261510666667,-0.623857142857,0.185,0.037,1006.1,0.0
1506925605137646000,34840,1506925605078364000,imu0,0.0,0.0,0.0,0.0,0.00349065850399,0.00418879020479,0.00837758040957,0.212477416667,-9.610517,-0.2941995,-0.623857142857,0.185,0.037,1006.1,0.0
1506925605137672820,34841,1506925605083364000,imu0,0.0,0.0,0.0,0.0,0.00698131700798,0.00209439510239,0.00907571211037,0.187960791667,-9.610517,-0.286027291667,-0.623857142857,0.185,0.037,1006.1,0.0
1506925605137750955,34842,1506925605088364000,imu0,0.0,0.0,0.0,0.0,0.00488692190558,-0.00418879020479,0.00698131700798,0.163444166667,-9.684066875,-0.286027291667,-0.623857142857,0.187,0.037,1006.18,0.0
1506925605137762498,34843,1506925605093364000,imu0,0.0,0.0,0.0,0.0,0.00349065850399,0.00209439510239,0.00488692190558,0.204305208333,-9.62686141667,-0.302371708333,-0.623857142857,0.187,0.037,1006.18,0.0
1506925605137771226,34844,1506925605098364000,imu0,0.0,0.0,0.0,0.0,0.00418879020479,0.00279252680319,0.00488692190558,0.196133,-9.62686141667,-0.286027291667,-0.623857142857,0.187,0.037,1006.18,0.0
1506925605137775388,34845,1506925605103364000,imu0,0.0,0.0,0.0,0.0,0.00837758040957,-0.000698131700798,-0.00279252680319,0.253338458333,-9.59417258333,-0.253338458333,-0.623857142857,0.187,0.037,1006.18,0.0
1506925605137782070,34846,1506925605108364000,imu0,0.0,0.0,0.0,0.0,0.00698131700798,0.000698131700798,0.00558505360638,0.2941995,-9.59417258333,-0.228821833333,-0.619857142857,0.183,0.0391428571429,1006.2,0.0
1506925605137796044,34847,1506925605113364000,imu0,0.0,0.0,0.0,0.0,0.00628318530718,0.00279252680319,0.00698131700798,0.335060541667,-9.66772245833,-0.277855083333,-0.619857142857,0.183,0.0391428571429,1006.2,0.0
1506925605137829016,34848,1506925605118364000,imu0,0.0,0.0,0.0,0.0,0.0,0.00349065850399,0.00698131700798,0.277855083333,-9.69223908333,-0.302371708333,-0.619857142857,0.183,0.0391428571429,1006.2,0.0
1506925605187691697,34849,1506925605123364000,imu0,0.0,0.0,0.0,0.0,0.00279252680319,0.0,0.00209439510239,0.236994041667,-9.635033625,-0.261510666667,-0.619857142857,0.183,0.0391428571429,1006.2,0.0
1506925605187704903,34850,1506925605128364000,imu0,0.0,0.0,0.0,0.0,0.00418879020479,-0.00488692190558,0.00418879020479,0.24516625,-9.59417258333,-0.286027291667,-0.621714285714,0.187,0.0394285714286,1006.12,0.0
1506925605187713498,34851,1506925605133364000,imu0,0.0,0.0,0.0,0.0,0.0,0.000698131700798,0.00279252680319,0.253338458333,-9.65955025,-0.318716125,-0.621714285714,0.187,0.0394285714286,1006.12,0.0
1506925605187718820,34852,1506925605138364000,imu0,0.0,0.0,0.0,0.0,0.00418879020479,0.000698131700798,0.00349065850399,0.24516625,-9.67589466667,-0.261510666667,-0.621714285714,0.187,0.0394285714286,1006.12,0.0
1506925605187722722,34853,1506925605143364000,imu0,0.0,0.0,0.0,0.0,0.00837758040957,0.00209439510239,0.00349065850399,0.302371708333,-9.72492791667,-0.236994041667,-0.621714285714,0.187,0.0394285714286,1006.12,0.0
1506925605187736031,34854,1506925605148364000,imu0,0.0,0.0,0.0,0.0,0.00767944870878,-0.00209439510239,0.00349065850399,0.375921583333,-9.67589466667,-0.228821833333,-0.626,0.187,0.0394285714286,1006.18,0.0
1506925605187772084,34855,1506925605153364000,imu0,0.0,0.0,0.0,0.0,0.0013962634016,0.000698131700798,0.00698131700798,0.392266,-9.635033625,-0.261510666667,-0.626,0.187,0.0394285714286,1006.18,0.0
1506925605187778223,34856,1506925605158364000,imu0,0.0,0.0,0.0,0.0,0.0,0.0,0.00698131700798,0.375921583333,-9.67589466667,-0.220649625,-0.626,0.187,0.0394285714286,1006.18,0.0
1506925605187782428,34857,1506925605163364000,imu0,0.0,0.0,0.0,0.0,-0.00209439510239,-0.000698131700798,0.00977384381117,0.2941995,-9.635033625,-0.261510666667,-0.626,0.187,0.0394285714286,1006.18,0.0
1506925605187788254,34858,1506925605168364000,imu0,0.0,0.0,0.0,0.0,0.00488692190558,-0.000698131700798,0.0160570291183,0.2941995,-9.64320583333,-0.269682875,-0.62,0.185,0.0368571428571,1006.32,0.0
1506925605237567389,34859,1506925605173364000,imu0,0.0,0.0,0.0,0.0,0.00558505360638,-0.0013962634016,0.013962634016,0.24516625,-9.61868920833,-0.286027291667,-0.62,0.185,0.0368571428571,1006.32,0.0
1506925605237585170,34860,1506925605178364000,imu0,0.0,0.0,0.0,0.0,0.00698131700798,-0.0013962634016,0.00977384381117,0.204305208333,-9.59417258333,-0.269682875,-0.62,0.185,0.0368571428571,1006.32,0.0
1506925605237588823,34861,1506925605183364000,imu0,0.0,0.0,0.0,0.0,0.00209439510239,0.00209439510239,0.00907571211037,0.204305208333,-9.65137804167,-0.236994041667,-0.62,0.185,0.0368571428571,1006.32,0.0
1506925605237598053,34862,1506925605188364000,imu0,0.0,0.0,0.0,0.0,0.00209439510239,0.00209439510239,0.00279252680319,0.220649625,-9.59417258333,-0.286027291667,-0.626142857143,0.187,0.037,1006.2,0.0
1506925605237601221,34863,1506925605193364000,imu0,0.0,0.0,0.0,0.0,0.00349065850399,-0.000698131700798,0.00628318530718,0.261510666667,-9.56965595833,-0.236994041667,-0.626142857143,0.187,0.037,1006.2,0.0
1506925605237613474,34864,1506925605198364000,imu0,0.0,0.0,0.0,0.0,0.000698131700798,0.00209439510239,0.00558505360638,0.2941995,-9.610517,-0.286027291667,-0.626142857143,0.187,0.037,1006.2,0.0
1506925605237619182,34865,1506925605203364000,imu0,0.0,0.0,0.0,0.0,0.00279252680319,-0.0013962634016,0.00837758040957,0.286027291667,-9.61868920833,-0.286027291667,-0.626142857143,0.187,0.037,1006.2,0.0
1506925605237647630,34866,1506925605208364000,imu0,0.0,0.0,0.0,0.0,0.00558505360638,-0.00418879020479,0.00977384381117,0.269682875,-9.59417258333,-0.269682875,-0.617857142857,0.183,0.0391428571429,1006.26,0.0
1506925605237655908,34867,1506925605213364000,imu0,0.0,0.0,0.0,0.0,0.00209439510239,-0.00209439510239,0.00907571211037,0.196133,-9.610517,-0.326888333333,-0.617857142857,0.183,0.0391428571429,1006.26,0.0
1506925605237668811,34868,1506925605218364000,imu0,0.0,0.0,0.0,0.0,0.00209439510239,0.000698131700798,0.00698131700798,0.204305208333,-9.610517,-0.318716125,-0.617857142857,0.183,0.0391428571429,1006.26,0.0
1506925605287226997,34869,1506925605223364000,imu0,0.0,0.0,0.0,0.0,0.00558505360638,-0.00209439510239,0.00698131700798,0.196133,-9.635033625,-0.310543916667,-0.621714285714,0.185,0.0394285714286,1006.3,0.0
1506925605287273644,34870,1506925605228364000,imu0,0.0,0.0,0.0,0.0,0.00698131700798,-0.0013962634016,0.00349065850399,0.212477416667,-9.610517,-0.269682875,-0.621714285714,0.185,0.0394285714286,1006.3,0.0
1506925605287318125,34871,1506925605233364000,imu0,0.0,0.0,0.0,0.0,0.00907571211037,-0.00488692190558,0.000698131700798,0.286027291667,-9.66772245833,-0.2941995,-0.621714285714,0.185,0.0394285714286,1006.3,0.0
1506925605287332163,34872,1506925605238364000,imu0,0.0,0.0,0.0,0.0,0.00349065850399,-0.000698131700798,0.00349065850399,0.286027291667,-9.60234479167,-0.277855083333,-0.621714285714,0.185,0.0394285714286,1006.3,0.0
1506925605287338881,34873,1506925605243364000,imu0,0.0,0.0,0.0,0.0,0.00558505360638,0.00279252680319,0.00698131700798,0.302371708333,-9.61868920833,-0.261510666667,-0.626,0.187,0.037,1006.24,0.0
1506925605287345720,34874,1506925605248364000,imu0,0.0,0.0,0.0,0.0,-0.0013962634016,0.0013962634016,0.00907571211037,0.2941995,-9.61868920833,-0.261510666667,-0.626,0.187,0.037,1006.24,0.0
1506925605287350461,34875,1506925605253364000,imu0,0.0,0.0,0.0,0.0,0.000698131700798,-0.000698131700798,0.00977384381117,0.236994041667,-9.65137804167,-0.277855083333,-0.626,0.187,0.037,1006.24,0.0
1506925605287355154,34876,1506925605258364000,imu0,0.0,0.0,0.0,0.0,0.00558505360638,-0.0013962634016,0.00837758040957,0.253338458333,-9.64320583333,-0.261510666667,-0.626,0.187,0.037,1006.24,0.0
1506925605287359733,34877,1506925605263364000,imu0,0.0,0.0,0.0,0.0,0.00837758040957,-0.000698131700798,0.0,0.286027291667,-9.610517,-0.253338458333,-0.617857142857,0.183,0.0367142857143,1006.3,0.0
1506925605287363066,34878,1506925605268364000,imu0,0.0,0.0,0.0,0.0,0.00767944870878,0.0013962634016,0.00279252680319,0.269682875,-9.66772245833,-0.236994041667,-0.617857142857,0.183,0.0367142857143,1006.3,0.0
1506925605337261224,34879,1506925605273364000,imu0,0.0,0.0,0.0,0.0,0.00279252680319,-0.00209439510239,0.00279252680319,0.335060541667,-9.64320583333,-0.269682875,-0.617857142857,0.183,0.0367142857143,1006.3,0.0
1506925605337272539,34880,1506925605278364000,imu0,0.0,0.0,0.0,0.0,0.0,0.0013962634016,0.00628318530718,0.318716125,-9.59417258333,-0.302371708333,-0.617857142857,0.183,0.0367142857143,1006.3,0.0
1506925605337280133,34881,1506925605283364000,imu0,0.0,0.0,0.0,0.0,0.000698131700798,0.00418879020479,0.00837758040957,0.253338458333,-9.64320583333,-0.2941995,-0.625857142857,0.187,0.0418571428571,1006.22,0.0
1506925605337295423,34882,1506925605288364000,imu0,0.0,0.0,0.0,0.0,0.00418879020479,0.00279252680319,0.00488692190558,0.253338458333,-9.61868920833,-0.2941995,-0.625857142857,0.187,0.0418571428571,1006.22,0.0
1506925605337338290,34883,1506925605293364000,imu0,0.0,0.0,0.0,0.0,0.00349065850399,-0.00209439510239,0.00698131700798,0.228821833333,-9.67589466667,-0.310543916667,-0.625857142857,0.187,0.0418571428571,1006.22,0.0
1506925605337342994,34884,1506925605298364000,imu0,0.0,0.0,0.0,0.0,0.00558505360638,-0.000698131700798,0.00698131700798,0.220649625,-9.7085835,-0.302371708333,-0.625857142857,0.187,0.0418571428571,1006.22,0.0
1506925605337349922,34885,1506925605303364000,imu0,0.0,0.0,0.0,0.0,0.00558505360638,0.0,0.00488692190558,0.269682875,-9.62686141667,-0.286027291667,-0.617857142857,0.183,0.0367142857143,1006.42,0.0
1506925605337361911,34886,1506925605308364000,imu0,0.0,0.0,0.0,0.0,0.0,0.000698131700798,0.0013962634016,0.286027291667,-9.61868920833,-0.2941995,-0.617857142857,0.183,0.0367142857143,1006.42,0.0
1506925605337367760,34887,1506925605313364000,imu0,0.0,0.0,0.0,0.0,0.000698131700798,-0.00209439510239,0.00279252680319,0.277855083333,-9.586000375,-0.269682875,-0.617857142857,0.183,0.0367142857143,1006.42,0.0
1506925605337372317,34888,1506925605318364000,imu0,0.0,0.0,0.0,0.0,0.00837758040957,0.0013962634016,0.00418879020479,0.2941995,-9.60234479167,-0.24516625,-0.617857142857,0.183,0.0367142857143,1006.42,0.0
1506925605387088952,34889,1506925605323364000,imu0,0.0,0.0,0.0,0.0,0.00628318530718,0.00488692190558,0.00767944870878,0.286027291667,-9.62686141667,-0.261510666667,-0.623714285714,0.185,0.0394285714286,1006.34,0.0
1506925605387096694,34890,1506925605328364000,imu0,0.0,0.0,0.0,0.0,0.0013962634016,0.00209439510239,0.00698131700798,0.228821833333,-9.635033625,-0.253338458333,-0.623714285714,0.185,0.0394285714286,1006.34,0.0
1506925605387101048,34891,1506925605333364000,imu0,0.0,0.0,0.0,0.0,0.0,-0.00279252680319,0.00628318530718,0.236994041667,-9.64320583333,-0.310543916667,-0.623714285714,0.185,0.0394285714286,1006.34,0.0
1506925605387104940,34892,1506925605338364000,imu0,0.0,0.0,0.0,0.0,0.00418879020479,0.00209439510239,0.00698131700798,0.277855083333,-9.62686141667,-0.335060541667,-0.623714285714,0.185,0.0394285714286,1006.34,0.0
1506925605387113145,34893,1506925605343364000,imu0,0.0,0.0,0.0,0.0,0.00698131700798,0.00209439510239,0.00418879020479,0.318716125,-9.610517,-0.236994041667,-0.628,0.185,0.0394285714286,1006.26,0.0
1506925605387123888,34894,1506925605348364000,imu0,0.0,0.0,0.0,0.0,0.00698131700798,0.00209439510239,0.00418879020479,0.326888333333,-9.586000375,-0.24516625,-0.628,0.185,0.0394285714286,1006.26,0.0
1506925605387129766,34895,1506925605353364000,imu0,0.0,0.0,0.0,0.0,0.00698131700798,0.00209439510239,0.00767944870878,0.286027291667,-9.635033625,-0.236994041667,-0.628,0.185,0.0394285714286,1006.26,0.0
1506925605387137280,34896,1506925605358364000,imu0,0.0,0.0,0.0,0.0,0.0,0.00418879020479,0.00628318530718,0.286027291667,-9.610517,-0.261510666667,-0.628,0.185,0.0394285714286,1006.26,0.0
1506925605387142173,34897,1506925605363364000,imu0,0.0,0.0,0.0,0.0,0.00209439510239,0.00418879020479,0.00977384381117,0.261510666667,-9.65955025,-0.253338458333,-0.617857142857,0.181,0.0391428571429,1006.18,0.0
1506925605387145041,34898,1506925605368364000,imu0,0.0,0.0,0.0,0.0,0.0013962634016,-0.0013962634016,0.00698131700798,0.261510666667,-9.69223908333,-0.261510666667,-0.617857142857,0.181,0.0391428571429,1006.18,0.0
1506925605437699222,34899,1506925605373364000,imu0,0.0,0.0,0.0,0.0,0.00488692190558,-0.0013962634016,0.00907571211037,0.24516625,-9.64320583333,-0.277855083333,-0.617857142857,0.181,0.0391428571429,1006.18,0.0
1506925605437711799,34900,1506925605378364000,imu0,0.0,0.0,0.0,0.0,0.00767944870878,-0.0013962634016,0.00698131700798,0.228821833333,-9.62686141667,-0.277855083333,-0.617857142857,0.181,0.0391428571429,1006.18,0.0
1506925605437715929,34901,1506925605383364000,imu0,0.0,0.0,0.0,0.0,0.00488692190558,0.0013962634016,0.00837758040957,0.24516625,-9.610517,-0.253338458333,-0.623714285714,0.187,0.037,1006.28,0.0
1506925605437719678,34902,1506925605388364000,imu0,0.0,0.0,0.0,0.0,0.0,-0.000698131700798,0.00558505360638,0.277855083333,-9.56965595833,-0.277855083333,-0.623714285714,0.187,0.037,1006.28,0.0
1506925605437723826,34903,1506925605393364000,imu0,0.0,0.0,0.0,0.0,0.0013962634016,-0.0013962634016,0.000698131700798,0.286027291667,-9.61868920833,-0.2941995,-0.623714285714,0.187,0.037,1006.28,0.0
1506925605437727436,34904,1506925605398364000,imu0,0.0,0.0,0.0,0.0,-0.000698131700798,0.0,0.00418879020479,0.277855083333,-9.64320583333,-0.286027291667,-0.623714285714,0.187,0.037,1006.28,0.0
1506925605437733374,34905,1506925605403364000,imu0,0.0,0.0,0.0,0.0,0.00628318530718,0.0,0.00488692190558,0.261510666667,-9.62686141667,-0.269682875,-0.619857142857,0.185,0.0392857142857,1006.22,0.0
1506925605437762346,34906,1506925605408364000,imu0,0.0,0.0,0.0,0.0,0.00698131700798,-0.00209439510239,0.00698131700798,0.286027291667,-9.62686141667,-0.236994041667,-0.619857142857,0.185,0.0392857142857,1006.22,0.0
1506925605437773986,34907,1506925605413364000,imu0,0.0,0.0,0.0,0.0,0.00558505360638,-0.0013962634016,0.00628318530718,0.253338458333,-9.62686141667,-0.236994041667,-0.619857142857,0.185,0.0392857142857,1006.22,0.0
1506925605437808430,34908,1506925605418364000,imu0,0.0,0.0,0.0,0.0,0.00488692190558,0.00349065850399,0.00558505360638,0.261510666667,-9.635033625,-0.269682875,-0.619857142857,0.185,0.0392857142857,1006.22,0.0
1506925605487218906,34909,1506925605423364000,imu0,0.0,0.0,0.0,0.0,0.00209439510239,0.0013962634016,0.00628318530718,0.253338458333,-9.635033625,-0.24516625,-0.621857142857,0.185,0.0394285714286,1006.26,0.0
1506925605487230321,34910,1506925605428364000,imu0,0.0,0.0,0.0,0.0,0.00558505360638,0.0013962634016,0.00698131700798,0.310543916667,-9.64320583333,-0.236994041667,-0.621857142857,0.185,0.0394285714286,1006.26,0.0
1506925605487248854,34911,1506925605433364000,imu0,0.0,0.0,0.0,0.0,0.00628318530718,-0.0013962634016,0.00907571211037,0.286027291667,-9.56965595833,-0.302371708333,-0.621857142857,0.185,0.0394285714286,1006.26,0.0
1506925605487253803,34912,1506925605438364000,imu0,0.0,0.0,0.0,0.0,0.00418879020479,0.00209439510239,0.00837758040957,0.318716125,-9.610517,-0.2941995,-0.623857142857,0.187,0.037,1006.28,0.0
1506925605487257363,34913,1506925605443364000,imu0,0.0,0.0,0.0,0.0,0.00767944870878,0.00488692190558,0.00698131700798,0.302371708333,-9.66772245833,-0.261510666667,-0.623857142857,0.187,0.037,1006.28,0.0
1506925605487261264,34914,1506925605448364000,imu0,0.0,0.0,0.0,0.0,0.00209439510239,-0.000698131700798,0.00977384381117,0.261510666667,-9.70041129167,-0.302371708333,-0.623857142857,0.187,0.037,1006.28,0.0
1506925605487270498,34915,1506925605453364000,imu0,0.0,0.0,0.0,0.0,0.00418879020479,0.0013962634016,0.00907571211037,0.236994041667,-9.65955025,-0.261510666667,-0.623857142857,0.187,0.037,1006.28,0.0
1506925605487276830,34916,1506925605458364000,imu0,0.0,0.0,0.0,0.0,0.00349065850399,0.000698131700798,0.00837758040957,0.220649625,-9.69223908333,-0.318716125,-0.617857142857,0.181,0.0367142857143,1006.26,0.0
1506925605487289690,34917,1506925605463364000,imu0,0.0,0.0,0.0,0.0,0.00488692190558,0.000698131700798,0.00698131700798,0.220649625,-9.61868920833,-0.269682875,-0.617857142857,0.181,0.0367142857143,1006.26,0.0
1506925605487293263,34918,1506925605468364000,imu0,0.0,0.0,0.0,0.0,0.00628318530718,0.00349065850399,0.010471975512,0.236994041667,-9.635033625,-0.269682875,-0.617857142857,0.181,0.0367142857143,1006.26,0.0
1506925605529963453,34919,1506925605473364000,imu0,0.0,0.0,0.0,0.0,0.00349065850399,-0.00209439510239,0.00349065850399,0.212477416667,-9.65137804167,-0.277855083333,-0.617857142857,0.181,0.0367142857143,1006.26,0.0
1506925605530037196,34920,1506925605478364000,imu0,0.0,0.0,0.0,0.0,-0.000698131700798,0.00279252680319,0.00628318530718,0.2941995,-9.65955025,-0.277855083333,-0.621714285714,0.185,0.037,1006.22,0.0
1506925605530065200,34921,1506925605483364000,imu0,0.0,0.0,0.0,0.0,0.00488692190558,-0.000698131700798,0.00279252680319,0.253338458333,-9.67589466667,-0.302371708333,-0.621714285714,0.185,0.037,1006.22,0.0
1506925605530075123,34922,1506925605488364000,imu0,0.0,0.0,0.0,0.0,0.00209439510239,-0.000698131700798,0.00209439510239,0.277855083333,-9.67589466667,-0.261510666667,-0.621714285714,0.185,0.037,1006.22,0.0
1506925605530084972,34923,1506925605493364000,imu0,0.0,0.0,0.0,0.0,0.00837758040957,0.00209439510239,0.00418879020479,0.302371708333,-9.59417258333,-0.253338458333,-0.621714285714,0.185,0.037,1006.22,0.0
1506925605530092185,34924,1506925605498364000,imu0,0.0,0.0,0.0,0.0,0.00767944870878,-0.0013962634016,0.010471975512,0.2941995,-9.62686141667,-0.277855083333,-0.622,0.185,0.0394285714286,1006.22,0.0
1506925605530104026,34925,1506925605503364000,imu0,0.0,0.0,0.0,0.0,0.00488692190558,0.000698131700798,0.00907571211037,0.2941995,-9.59417258333,-0.261510666667,-0.622,0.185,0.0394285714286,1006.22,0.0
1506925605530109712,34926,1506925605508364000,imu0,0.0,0.0,0.0,0.0,0.000698131700798,0.000698131700798,0.00837758040957,0.261510666667,-9.635033625,-0.310543916667,-0.622,0.185,0.0394285714286,1006.22,0.0
1506925605530122438,34927,1506925605513364000,imu0,0.0,0.0,0.0,0.0,0.00698131700798,-0.00349065850399,0.00977384381117,0.236994041667,-9.61868920833,-0.253338458333,-0.622,0.185,0.0394285714286,1006.22,0.0
1506925605530129450,34928,1506925605518364000,imu0,0.0,0.0,0.0,0.0,0.00279252680319,0.0,0.00698131700798,0.204305208333,-9.61868920833,-0.286027291667,-0.622,0.185,0.0345714285714,1006.24,0.0
1506925605587670236,34929,1506925605523364000,imu0,0.0,0.0,0.0,0.0,0.00767944870878,0.0013962634016,0.00279252680319,0.236994041667,-9.61868920833,-0.269682875,-0.622,0.185,0.0345714285714,1006.24,0.0
1506925605587744572,34930,1506925605528364000,imu0,0.0,0.0,0.0,0.0,0.00558505360638,0.00418879020479,0.000698131700798,0.2941995,-9.59417258333,-0.269682875,-0.622,0.185,0.0345714285714,1006.24,0.0
1506925605587750856,34931,1506925605533364000,imu0,0.0,0.0,0.0,0.0,0.0013962634016,-0.000698131700798,0.00279252680319,0.310543916667,-9.61868920833,-0.253338458333,-0.622,0.185,0.0345714285714,1006.24,0.0
1506925605587759878,34932,1506925605538364000,imu0,0.0,0.0,0.0,0.0,0.00209439510239,-0.00209439510239,0.00907571211037,0.335060541667,-9.635033625,-0.277855083333,-0.622,0.189,0.0371428571429,1006.22,0.0
1506925605587767273,34933,1506925605543364000,imu0,0.0,0.0,0.0,0.0,0.00279252680319,0.0,0.0111701072128,0.2941995,-9.65137804167,-0.261510666667,-0.622,0.189,0.0371428571429,1006.22,0.0
1506925605587772694,34934,1506925605548364000,imu0,0.0,0.0,0.0,0.0,0.00418879020479,-0.000698131700798,0.00977384381117,0.236994041667,-9.62686141667,-0.302371708333,-0.622,0.189,0.0371428571429,1006.22,0.0
1506925605587787424,34935,1506925605553364000,imu0,0.0,0.0,0.0,0.0,0.00488692190558,-0.000698131700798,0.00837758040957,0.212477416667,-9.610517,-0.269682875,-0.622,0.189,0.0371428571429,1006.22,0.0
1506925605587796805,34936,1506925605558364000,imu0,0.0,0.0,0.0,0.0,0.0013962634016,-0.000698131700798,0.00628318530718,0.220649625,-9.610517,-0.310543916667,-0.618142857143,0.185,0.0392857142857,1006.3,0.0
1506925605587800750,34937,1506925605563364000,imu0,0.0,0.0,0.0,0.0,-0.00209439510239,-0.000698131700798,0.00418879020479,0.220649625,-9.64320583333,-0.286027291667,-0.618142857143,0.185,0.0392857142857,1006.3,0.0
1506925605587819456,34938,1506925605568364000,imu0,0.0,0.0,0.0,0.0,0.00349065850399,0.0013962634016,0.00349065850399,0.286027291667,-9.66772245833,-0.24516625,-0.618142857143,0.185,0.0392857142857,1006.3,0.0
1506925605637878814,34939,1506925605573364000,imu0,0.0,0.0,0.0,0.0,0.00279252680319,-0.0013962634016,0.00558505360638,0.318716125,-9.62686141667,-0.261510666667,-0.618142857143,0.185,0.0392857142857,1006.3,0.0
1506925605637951880,34940,1506925605578364000,imu0,0.0,0.0,0.0,0.0,0.00488692190558,0.0013962634016,0.00977384381117,0.318716125,-9.610517,-0.302371708333,-0.624142857143,0.185,0.0394285714286,1006.16,0.0
1506925605637965370,34941,1506925605583364000,imu0,0.0,0.0,0.0,0.0,0.00558505360638,-0.000698131700798,0.00907571211037,0.310543916667,-9.586000375,-0.277855083333,-0.624142857143,0.185,0.0394285714286,1006.16,0.0
1506925605637973391,34942,1506925605588364000,imu0,0.0,0.0,0.0,0.0,0.00698131700798,0.0013962634016,0.00698131700798,0.269682875,-9.61868920833,-0.310543916667,-0.624142857143,0.185,0.0394285714286,1006.16,0.0
1506925605637980637,34943,1506925605593364000,imu0,0.0,0.0,0.0,0.0,0.00209439510239,0.00558505360638,0.00628318530718,0.277855083333,-9.61868920833,-0.302371708333,-0.624142857143,0.185,0.0394285714286,1006.16,0.0
1506925605637985273,34944,1506925605598364000,imu0,0.0,0.0,0.0,0.0,-0.000698131700798,0.00209439510239,0.00698131700798,0.24516625,-9.60234479167,-0.277855083333,-0.626,0.187,0.0394285714286,1006.22,0.0
1506925605637992815,34945,1506925605603364000,imu0,0.0,0.0,0.0,0.0,0.00349065850399,-0.000698131700798,0.00977384381117,0.236994041667,-9.62686141667,-0.261510666667,-0.626,0.187,0.0394285714286,1006.22,0.0
1506925605638042704,34946,1506925605608364000,imu0,0.0,0.0,0.0,0.0,0.00698131700798,-0.00349065850399,0.00837758040957,0.261510666667,-9.61868920833,-0.286027291667,-0.626,0.187,0.0394285714286,1006.22,0.0
1506925605638049300,34947,1506925605613364000,imu0,0.0,0.0,0.0,0.0,0.00907571211037,-0.00209439510239,0.00698131700798,0.2941995,-9.61868920833,-0.302371708333,-0.626,0.187,0.0394285714286,1006.22,0.0
1506925605638072503,34948,1506925605618364000,imu0,0.0,0.0,0.0,0.0,0.0013962634016,0.0,0.00767944870878,0.261510666667,-9.635033625,-0.302371708333,-0.619857142857,0.183,0.0391428571429,1006.26,0.0
1506925605687683791,34949,1506925605623364000,imu0,0.0,0.0,0.0,0.0,0.0,-0.000698131700798,0.00767944870878,0.277855083333,-9.60234479167,-0.269682875,-0.619857142857,0.183,0.0391428571429,1006.26,0.0
1506925605687766983,34950,1506925605628364000,imu0,0.0,0.0,0.0,0.0,0.00698131700798,0.000698131700798,0.0118682389136,0.302371708333,-9.67589466667,-0.253338458333,-0.619857142857,0.183,0.0391428571429,1006.26,0.0
1506925605687817505,34951,1506925605633364000,imu0,0.0,0.0,0.0,0.0,0.00907571211037,0.000698131700798,0.00628318530718,0.2941995,-9.61868920833,-0.2941995,-0.619857142857,0.183,0.0391428571429,1006.26,0.0
1506925605687827765,34952,1506925605638364000,imu0,0.0,0.0,0.0,0.0,0.00349065850399,0.0013962634016,0.00628318530718,0.318716125,-9.66772245833,-0.253338458333,-0.625857142857,0.187,0.037,1006.26,0.0
1506925605687833091,34953,1506925605643364000,imu0,0.0,0.0,0.0,0.0,0.00418879020479,0.000698131700798,0.00907571211037,0.318716125,-9.67589466667,-0.261510666667,-0.625857142857,0.187,0.037,1006.26,0.0
1506925605687853536,34954,1506925605648364000,imu0,0.0,0.0,0.0,0.0,0.00279252680319,-0.000698131700798,0.0118682389136,0.269682875,-9.56148375,-0.261510666667,-0.625857142857,0.187,0.037,1006.26,0.0
1506925605687857269,34955,1506925605653364000,imu0,0.0,0.0,0.0,0.0,0.00279252680319,0.000698131700798,0.00837758040957,0.261510666667,-9.610517,-0.24516625,-0.625857142857,0.183,0.0367142857143,1006.26,0.0
1506925605687874046,34956,1506925605658364000,imu0,0.0,0.0,0.0,0.0,0.00698131700798,-0.0013962634016,0.00698131700798,0.269682875,-9.586000375,-0.302371708333,-0.617857142857,0.183,0.0367142857143,1006.26,0.0
1506925605687882750,34957,1506925605663364000,imu0,0.0,0.0,0.0,0.0,0.00558505360638,0.0,0.00837758040957,0.253338458333,-9.59417258333,-0.286027291667,-0.617857142857,0.183,0.0367142857143,1006.26,0.0
1506925605687885969,34958,1506925605668364000,imu0,0.0,0.0,0.0,0.0,0.00558505360638,0.0,0.00628318530718,0.253338458333,-9.56965595833,-0.310543916667,-0.617857142857,0.183,0.0367142857143,1006.26,0.0
1506925605737537585,34959,1506925605673364000,imu0,0.0,0.0,0.0,0.0,0.0013962634016,0.00209439510239,0.00628318530718,0.236994041667,-9.586000375,-0.277855083333,-0.621857142857,0.185,0.0394285714286,1006.3,0.0
1506925605737548220,34960,1506925605678364000,imu0,0.0,0.0,0.0,0.0,-0.0013962634016,0.0013962634016,0.00698131700798,0.236994041667,-9.60234479167,-0.286027291667,-0.621857142857,0.185,0.0394285714286,1006.3,0.0
1506925605737554818,34961,1506925605683364000,imu0,0.0,0.0,0.0,0.0,-0.0013962634016,0.000698131700798,0.00907571211037,0.220649625,-9.65955025,-0.302371708333,-0.621857142857,0.185,0.0394285714286,1006.3,0.0
1506925605737559231,34962,1506925605688364000,imu0,0.0,0.0,0.0,0.0,0.00209439510239,0.0013962634016,0.00837758040957,0.212477416667,-9.64320583333,-0.24516625,-0.621857142857,0.185,0.0394285714286,1006.3,0.0
1506925605737563659,34963,1506925605693364000,imu0,0.0,0.0,0.0,0.0,0.00209439510239,0.00349065850399,0.00977384381117,0.228821833333,-9.70041129167,-0.269682875,-0.623857142857,0.187,0.0394285714286,1006.4,0.0
1506925605737574074,34964,1506925605698364000,imu0,0.0,0.0,0.0,0.0,0.00349065850399,-0.000698131700798,0.00767944870878,0.269682875,-9.66772245833,-0.277855083333,-0.623857142857,0.187,0.0394285714286,1006.4,0.0
1506925605737583065,34965,1506925605703364000,imu0,0.0,0.0,0.0,0.0,0.00488692190558,-0.000698131700798,0.00628318530718,0.302371708333,-9.70041129167,-0.269682875,-0.623857142857,0.187,0.0394285714286,1006.4,0.0
1506925605737598645,34966,1506925605708364000,imu0,0.0,0.0,0.0,0.0,0.00349065850399,0.0013962634016,0.00628318530718,0.318716125,-9.64320583333,-0.24516625,-0.623857142857,0.187,0.0394285714286,1006.4,0.0
1506925605737623827,34967,1506925605713364000,imu0,0.0,0.0,0.0,0.0,0.00209439510239,-0.00209439510239,0.00628318530718,0.34323275,-9.65955025,-0.24516625,-0.618,0.183142857143,0.0367142857143,1006.28,0.0
1506925605737668323,34968,1506925605718364000,imu0,0.0,0.0,0.0,0.0,0.00209439510239,-0.000698131700798,0.00698131700798,0.286027291667,-9.64320583333,-0.24516625,-0.618,0.183142857143,0.0367142857143,1006.28,0.0
1506925605787697744,34969,1506925605723364000,imu0,0.0,0.0,0.0,0.0,0.00977384381117,0.0013962634016,0.0111701072128,0.228821833333,-9.610517,-0.286027291667,-0.618,0.183142857143,0.0367142857143,1006.28,0.0
1506925605787790904,34970,1506925605728364000,imu0,0.0,0.0,0.0,0.0,0.00767944870878,-0.000698131700798,0.00837758040957,0.228821833333,-9.59417258333,-0.277855083333,-0.618,0.183142857143,0.0367142857143,1006.28,0.0
1506925605787835515,34971,1506925605733364000,imu0,0.0,0.0,0.0,0.0,0.00279252680319,0.0,0.00418879020479,0.228821833333,-9.65955025,-0.269682875,-0.623857142857,0.187,0.037,1006.28,0.0
1506925605787846554,34972,1506925605738364000,imu0,0.0,0.0,0.0,0.0,0.00209439510239,-0.0013962634016,0.00349065850399,0.236994041667,-9.61868920833,-0.277855083333,-0.623857142857,0.187,0.037,1006.28,0.0
1506925605787853733,34973,1506925605743364000,imu0,0.0,0.0,0.0,0.0,0.000698131700798,0.0013962634016,0.00279252680319,0.253338458333,-9.61868920833,-0.277855083333,-0.623857142857,0.187,0.037,1006.28,0.0
1506925605787859075,34974,1506925605748364000,imu0,0.0,0.0,0.0,0.0,0.00628318530718,0.00279252680319,0.00418879020479,0.261510666667,-9.59417258333,-0.2941995,-0.623857142857,0.187,0.037,1006.28,0.0
1506925605787862332,34975,1506925605753364000,imu0,0.0,0.0,0.0,0.0,0.00488692190558,-0.0013962634016,0.00488692190558,0.2941995,-9.62686141667,-0.302371708333,-0.618,0.181142857143,0.0367142857143,1006.2,0.0
1506925605787886070,34976,1506925605758364000,imu0,0.0,0.0,0.0,0.0,0.0013962634016,0.000698131700798,0.00837758040957,0.318716125,-9.66772245833,-0.310543916667,-0.618,0.181142857143,0.0367142857143,1006.2,0.0
1506925605787889745,34977,1506925605763364000,imu0,0.0,0.0,0.0,0.0,0.0,-0.00418879020479,0.00977384381117,0.253338458333,-9.61868920833,-0.277855083333,-0.618,0.181142857143,0.0367142857143,1006.2,0.0
1506925605787892831,34978,1506925605768364000,imu0,0.0,0.0,0.0,0.0,0.0013962634016,-0.00279252680319,0.00837758040957,0.261510666667,-9.56148375,-0.277855083333,-0.618,0.181142857143,0.0367142857143,1006.2,0.0
1506925605837829443,34979,1506925605773364000,imu0,0.0,0.0,0.0,0.0,0.000698131700798,-0.00279252680319,0.00907571211037,0.236994041667,-9.635033625,-0.286027291667,-0.624,0.187,0.0394285714286,1006.14,0.0
1506925605837840514,34980,1506925605778364000,imu0,0.0,0.0,0.0,0.0,0.00349065850399,-0.00628318530718,0.00488692190558,0.220649625,-9.61868920833,-0.277855083333,-0.624,0.187,0.0394285714286,1006.14,0.0
1506925605837875996,34981,1506925605783364000,imu0,0.0,0.0,0.0,0.0,0.00767944870878,0.000698131700798,0.00209439510239,0.236994041667,-9.61868920833,-0.302371708333,-0.624,0.187,0.0394285714286,1006.14,0.0
1506925605837883336,34982,1506925605788364000,imu0,0.0,0.0,0.0,0.0,0.00628318530718,-0.00279252680319,0.00349065850399,0.2941995,-9.64320583333,-0.2941995,-0.624,0.187,0.0394285714286,1006.14,0.0
1506925605837887977,34983,1506925605793364000,imu0,0.0,0.0,0.0,0.0,0.00488692190558,0.00209439510239,0.00767944870878,0.318716125,-9.67589466667,-0.24516625,-0.626142857143,0.187,0.0394285714286,1006.26,0.0
1506925605837892786,34984,1506925605798364000,imu0,0.0,0.0,0.0,0.0,0.00349065850399,0.0,0.00628318530718,0.310543916667,-9.62686141667,-0.261510666667,-0.626142857143,0.187,0.0394285714286,1006.26,0.0
1506925605837902253,34985,1506925605803364000,imu0,0.0,0.0,0.0,0.0,0.00418879020479,0.0013962634016,0.00837758040957,0.310543916667,-9.59417258333,-0.253338458333,-0.626142857143,0.187,0.0394285714286,1006.26,0.0
1506925605837909438,34986,1506925605808364000,imu0,0.0,0.0,0.0,0.0,0.00418879020479,0.00279252680319,0.00558505360638,0.326888333333,-9.733100125,-0.277855083333,-0.626142857143,0.187,0.0394285714286,1006.26,0.0
1506925605837915545,34987,1506925605813364000,imu0,0.0,0.0,0.0,0.0,0.00977384381117,-0.0013962634016,0.0111701072128,0.286027291667,-9.69223908333,-0.24516625,-0.62,0.181142857143,0.0367142857143,1006.3,0.0
1506925605837941649,34988,1506925605818364000,imu0,0.0,0.0,0.0,0.0,0.00279252680319,-0.00349065850399,0.00907571211037,0.277855083333,-9.67589466667,-0.286027291667,-0.62,0.181142857143,0.0367142857143,1006.3,0.0
1506925605887616627,34989,1506925605823364000,imu0,0.0,0.0,0.0,0.0,0.00418879020479,-0.000698131700798,0.00977384381117,0.277855083333,-9.65137804167,-0.277855083333,-0.62,0.181142857143,0.0367142857143,1006.3,0.0
1506925605887630237,34990,1506925605828364000,imu0,0.0,0.0,0.0,0.0,0.00209439510239,0.000698131700798,0.00907571211037,0.286027291667,-9.62686141667,-0.2941995,-0.62,0.181142857143,0.0367142857143,1006.3,0.0
1506925605887639354,34991,1506925605833364000,imu0,0.0,0.0,0.0,0.0,0.0013962634016,0.000698131700798,0.00628318530718,0.269682875,-9.65137804167,-0.286027291667,-0.624,0.185,0.0394285714286,1006.3,0.0
1506925605887647987,34992,1506925605838364000,imu0,0.0,0.0,0.0,0.0,0.00488692190558,0.00209439510239,0.00488692190558,0.253338458333,-9.56965595833,-0.236994041667,-0.624,0.185,0.0394285714286,1006.3,0.0
1506925605887653896,34993,1506925605843364000,imu0,0.0,0.0,0.0,0.0,0.00488692190558,-0.00209439510239,0.00488692190558,0.286027291667,-9.60234479167,-0.24516625,-0.624,0.185,0.0394285714286,1006.3,0.0
1506925605887659368,34994,1506925605848364000,imu0,0.0,0.0,0.0,0.0,0.00628318530718,-0.000698131700798,0.010471975512,0.269682875,-9.61868920833,-0.269682875,-0.624,0.185,0.0394285714286,1006.3,0.0
1506925605887665569,34995,1506925605853364000,imu0,0.0,0.0,0.0,0.0,0.00279252680319,0.000698131700798,0.0118682389136,0.261510666667,-9.64320583333,-0.2941995,-0.617857142857,0.183,0.0367142857143,1006.22,0.0
1506925605887684991,34996,1506925605858364000,imu0,0.0,0.0,0.0,0.0,0.000698131700798,0.0,0.00977384381117,0.261510666667,-9.61868920833,-0.318716125,-0.617857142857,0.183,0.0367142857143,1006.22,0.0
1506925605887734136,34997,1506925605863364000,imu0,0.0,0.0,0.0,0.0,-0.0013962634016,-0.00209439510239,0.0111701072128,0.24516625,-9.64320583333,-0.269682875,-0.617857142857,0.183,0.0367142857143,1006.22,0.0
1506925605887781929,34998,1506925605868364000,imu0,0.0,0.0,0.0,0.0,0.00209439510239,0.000698131700798,0.00767944870878,0.261510666667,-9.67589466667,-0.277855083333,-0.617857142857,0.183,0.0367142857143,1006.22,0.0
1506925605937554225,34999,1506925605873364000,imu0,0.0,0.0,0.0,0.0,0.00628318530718,-0.00279252680319,0.00767944870878,0.269682875,-9.62686141667,-0.269682875,-0.621857142857,0.185,0.037,1006.22,0.0
1506925605937590410,35000,1506925605878364000,imu0,0.0,0.0,0.0,0.0,0.00628318530718,-0.00349065850399,0.00418879020479,0.286027291667,-9.610517,-0.269682875,-0.621857142857,0.185,0.037,1006.22,0.0
1506925605937596714,35001,1506925605883364000,imu0,0.0,0.0,0.0,0.0,0.00488692190558,-0.00209439510239,0.00488692190558,0.261510666667,-9.64320583333,-0.24516625,-0.621857142857,0.185,0.037,1006.22,0.0
1506925605937600335,35002,1506925605888364000,imu0,0.0,0.0,0.0,0.0,0.00209439510239,-0.0013962634016,0.00488692190558,0.261510666667,-9.56148375,-0.269682875,-0.624142857143,0.189,0.0395714285714,1006.4,0.0
1506925605937603233,35003,1506925605893364000,imu0,0.0,0.0,0.0,0.0,0.000698131700798,0.000698131700798,0.00977384381117,0.269682875,-9.61868920833,-0.261510666667,-0.624142857143,0.189,0.0395714285714,1006.4,0.0
1506925605937607570,35004,1506925605898364000,imu0,0.0,0.0,0.0,0.0,0.00488692190558,-0.0013962634016,0.00558505360638,0.302371708333,-9.610517,-0.269682875,-0.624142857143,0.189,0.0395714285714,1006.4,0.0
1506925605937615002,35005,1506925605903364000,imu0,0.0,0.0,0.0,0.0,0.00907571211037,0.00209439510239,0.00767944870878,0.261510666667,-9.60234479167,-0.2941995,-0.624142857143,0.189,0.0395714285714,1006.4,0.0
1506925605937634428,35006,1506925605908364000,imu0,0.0,0.0,0.0,0.0,0.00977384381117,-0.00209439510239,0.00628318530718,0.269682875,-9.635033625,-0.269682875,-0.616142857143,0.183142857143,0.0367142857143,1006.16,0.0
1506925605937650510,35007,1506925605913364000,imu0,0.0,0.0,0.0,0.0,0.00349065850399,0.000698131700798,0.00767944870878,0.253338458333,-9.64320583333,-0.220649625,-0.616142857143,0.183142857143,0.0367142857143,1006.16,0.0
1506925605937667670,35008,1506925605918364000,imu0,0.0,0.0,0.0,0.0,0.00209439510239,0.0013962634016,0.00628318530718,0.286027291667,-9.60234479167,-0.277855083333,-0.616142857143,0.183142857143,0.0367142857143,1006.16,0.0
1506925605987594832,35009,1506925605923364000,imu0,0.0,0.0,0.0,0.0,-0.00209439510239,0.0,0.00837758040957,0.277855083333,-9.61868920833,-0.310543916667,-0.616142857143,0.183142857143,0.0367142857143,1006.16,0.0
1506925605987608543,35010,1506925605928364000,imu0,0.0,0.0,0.0,0.0,0.0013962634016,0.0013962634016,0.00767944870878,0.236994041667,-9.59417258333,-0.2941995,-0.626142857143,0.185,0.0394285714286,1006.32,0.0
1506925605987617210,35011,1506925605933364000,imu0,0.0,0.0,0.0,0.0,0.00767944870878,-0.000698131700798,0.00767944870878,0.220649625,-9.56965595833,-0.269682875,-0.626142857143,0.185,0.0394285714286,1006.32,0.0
1506925605987624225,35012,1506925605938364000,imu0,0.0,0.0,0.0,0.0,0.00767944870878,0.0013962634016,0.00977384381117,0.236994041667,-9.60234479167,-0.277855083333,-0.626142857143,0.185,0.0394285714286,1006.32,0.0
1506925605987628571,35013,1506925605943364000,imu0,0.0,0.0,0.0,0.0,0.00209439510239,-0.000698131700798,0.00698131700798,0.261510666667,-9.64320583333,-0.277855083333,-0.626142857143,0.185,0.0394285714286,1006.32,0.0
1506925605987633918,35014,1506925605948364000,imu0,0.0,0.0,0.0,0.0,0.00209439510239,0.0013962634016,0.00628318530718,0.253338458333,-9.62686141667,-0.286027291667,-0.621857142857,0.185,0.0394285714286,1006.2,0.0
1506925605987641092,35015,1506925605953364000,imu0,0.0,0.0,0.0,0.0,0.00628318530718,-0.000698131700798,0.00837758040957,0.253338458333,-9.60234479167,-0.228821833333,-0.621857142857,0.185,0.0394285714286,1006.2,0.0
1506925605987651262,35016,1506925605958364000,imu0,0.0,0.0,0.0,0.0,0.00418879020479,0.00279252680319,0.00767944870878,0.286027291667,-9.64320583333,-0.302371708333,-0.621857142857,0.185,0.0394285714286,1006.2,0.0
1506925605987661373,35017,1506925605963364000,imu0,0.0,0.0,0.0,0.0,0.00418879020479,0.00279252680319,0.00698131700798,0.286027291667,-9.62686141667,-0.286027291667,-0.621857142857,0.185,0.0394285714286,1006.2,0.0
1506925605987677428,35018,1506925605968364000,imu0,0.0,0.0,0.0,0.0,0.00558505360638,-0.00209439510239,0.00698131700798,0.253338458333,-9.610517,-0.277855083333,-0.624142857143,0.185,0.037,1006.3,0.0
1506925606037704632,35019,1506925605973364000,imu0,0.0,0.0,0.0,0.0,0.00558505360638,-0.000698131700798,0.010471975512,0.236994041667,-9.61868920833,-0.261510666667,-0.624142857143,0.185,0.037,1006.3,0.0
1506925606037726566,35020,1506925605978364000,imu0,0.0,0.0,0.0,0.0,0.00209439510239,0.00349065850399,0.00907571211037,0.253338458333,-9.65137804167,-0.286027291667,-0.624142857143,0.185,0.037,1006.3,0.0
1506925606037734632,35021,1506925605983364000,imu0,0.0,0.0,0.0,0.0,0.0013962634016,-0.0013962634016,0.00837758040957,0.261510666667,-9.62686141667,-0.269682875,-0.624142857143,0.185,0.037,1006.3,0.0
1506925606037739079,35022,1506925605988364000,imu0,0.0,0.0,0.0,0.0,0.00488692190558,0.000698131700798,0.00418879020479,0.236994041667,-9.62686141667,-0.286027291667,-0.626,0.187,0.037,1006.34,0.0
1506925606037742320,35023,1506925605993364000,imu0,0.0,0.0,0.0,0.0,0.00977384381117,0.00418879020479,0.00698131700798,0.236994041667,-9.610517,-0.286027291667,-0.626,0.187,0.037,1006.34,0.0
1506925606037745415,35024,1506925605998364000,imu0,0.0,0.0,0.0,0.0,0.00698131700798,0.0013962634016,0.00837758040957,0.228821833333,-9.61868920833,-0.310543916667,-0.626,0.187,0.037,1006.34,0.0
1506925606037757972,35025,1506925606003364000,imu0,0.0,0.0,0.0,0.0,0.00558505360638,0.0013962634016,0.00349065850399,0.228821833333,-9.536967125,-0.269682875,-0.626,0.187,0.037,1006.34,0.0
1506925606037766642,35026,1506925606008364000,imu0,0.0,0.0,0.0,0.0,0.00279252680319,-0.00279252680319,0.00698131700798,0.253338458333,-9.61868920833,-0.228821833333,-0.618,0.181142857143,0.0367142857143,1006.24,0.0
1506925606037806876,35027,1506925606013364000,imu0,0.0,0.0,0.0,0.0,0.00209439510239,-0.0013962634016,0.00837758040957,0.261510666667,-9.56148375,-0.269682875,-0.618,0.181142857143,0.0367142857143,1006.24,0.0
1506925606037812463,35028,1506925606018364000,imu0,0.0,0.0,0.0,0.0,0.0013962634016,0.0,0.00907571211037,0.302371708333,-9.59417258333,-0.310543916667,-0.618,0.181142857143,0.0367142857143,1006.24,0.0
1506925606079714966,35029,1506925606023364000,imu0,0.0,0.0,0.0,0.0,0.00698131700798,0.0,0.00837758040957,0.277855083333,-9.60234479167,-0.269682875,-0.618,0.181142857143,0.0367142857143,1006.24,0.0
1506925606079729994,35030,1506925606028364000,imu0,0.0,0.0,0.0,0.0,0.00558505360638,-0.000698131700798,0.00767944870878,0.253338458333,-9.65137804167,-0.261510666667,-0.624,0.183142857143,0.0368571428571,1006.28,0.0
